,City,Country,Cloudiness,Humidity,Lat,Lng,Max Temp,Wind Speed
0,Kungurtug,RU,0,64,50.6,97.52,257.57,1.71
1,Omboue,GA,100,93,-1.57,9.26,298.85,1.34
2,George Town,MY,20,94,5.41,100.34,300.93,0.48
3,Hamilton,US,1,37,39.18,-84.53,278.71,4.6
4,Hobart,AU,90,62,-42.88,147.33,286.15,3.6
5,Bredasdorp,ZA,0,83,-34.53,20.04,295.15,2.6
6,Dikson,RU,95,94,73.51,80.55,263.8,6.16
7,Ixtapa,MX,90,65,20.7,-105.2,298.15,2.6
8,Beringovskiy,RU,100,82,63.05,179.32,254.01,11.18
9,Ancud,CL,75,68,-41.87,-73.82,291.15,5.7
10,Nikolskoye,RU,75,72,59.7,30.79,273.71,5.0
11,Javanrud,IR,99,53,34.8,46.52,272.71,2.74
12,Upernavik,GL,44,59,72.79,-56.15,254.01,1.99
13,Saint Andrews,US,1,45,34.05,-81.13,284.82,3.52
14,Magistralnyy,RU,0,87,56.17,107.45,258.71,1.51
15,Necochea,AR,0,50,-38.55,-58.74,305.37,4.02
16,Vostok,RU,58,94,46.49,135.88,250.34,1.22
17,Ushuaia,AR,75,66,-54.8,-68.3,284.15,2.6
18,Avarua,CK,100,88,-21.21,-159.78,299.15,3.1
19,Qaanaaq,GL,51,34,77.48,-69.36,255.07,3.35
20,Taltal,CL,80,69,-25.4,-70.48,294.1,3.32
21,Vangaindrano,MG,82,95,-23.35,47.6,297.9,0.53
22,Torshavn,FO,100,86,62.01,-6.77,277.15,6.2
23,Punta Arenas,CL,75,58,-53.15,-70.92,285.15,15.4
24,Desterro,BR,17,31,-7.29,-37.09,304.96,3.01
25,Thompson,CA,75,64,55.74,-97.86,253.15,4.6
26,Mar del Plata,AR,0,39,-38.0,-57.56,305.93,8.7
27,Cabo San Lucas,MX,20,56,22.89,-109.91,298.71,1.0
28,Bilma,NE,100,11,18.69,12.92,295.79,2.85
29,Saint-Pierre,RE,20,78,-21.34,55.48,300.15,6.2
30,Coyhaique,CL,40,41,-45.58,-72.07,288.15,16.5
31,Haines Junction,CA,100,96,60.75,-137.51,247.96,1.95
32,Vaini,TO,20,78,-21.2,-175.2,298.15,3.1
33,Hermanus,ZA,0,84,-34.42,19.23,296.48,3.58
34,Port Hedland,AU,0,83,-20.32,118.57,299.15,2.1
35,Faanui,PF,100,72,-16.48,-151.75,301.45,4.45
36,Hithadhoo,MV,0,75,-0.6,73.08,301.89,3.17
37,Yulara,AU,0,24,-25.24,130.99,300.15,3.1
38,Cape Town,ZA,4,77,-33.93,18.42,295.37,6.7
39,Arraial do Cabo,BR,20,74,-22.97,-42.03,305.15,5.1
40,Asau,RO,75,75,46.43,26.4,278.15,2.1
41,Bethel,US,1,35,41.37,-73.41,272.59,3.6
42,Kahului,US,40,69,20.89,-156.47,296.15,6.2
43,Lebu,CL,0,49,-37.62,-73.65,295.07,3.95
44,Tuktoyaktuk,CA,5,64,69.45,-133.04,231.15,1.68
45,Puerto Ayora,EC,20,66,-0.74,-90.35,303.15,10.3
46,Wanning,CN,32,93,18.8,110.4,296.08,4.25
47,Comodoro Rivadavia,AR,0,35,-45.87,-67.5,299.15,13.9
48,Hilo,US,20,77,19.73,-155.09,295.93,2.6
49,Calamar,CO,20,62,10.25,-74.91,304.15,10.3
50,Kapaa,US,20,83,22.08,-159.32,296.15,7.7
51,Kaitangata,NZ,100,91,-46.28,169.85,288.71,0.89
52,Pimentel,PE,75,29,-6.84,-79.93,292.15,8.2
53,Torbay,CA,0,63,47.67,-52.73,265.93,2.68
54,San Patricio,MX,75,62,19.22,-104.7,302.15,5.1
55,Opuwo,NA,82,67,-18.06,13.84,295.98,3.94
56,Tasiilaq,GL,90,63,65.61,-37.64,272.15,6.2
57,Rikitea,PF,52,78,-23.12,-134.97,299.57,9.05
58,Port-Gentil,GA,20,89,-0.72,8.78,302.15,2.1
59,Vidim,RU,0,95,56.41,103.11,257.08,1.3
60,Aldan,RU,54,90,58.6,125.39,250.2,3.12
61,Mount Gambier,AU,90,82,-37.83,140.77,287.15,4.1
62,Awjilah,LY,5,55,29.11,21.29,289.96,6.73
63,Souillac,MU,40,78,-20.52,57.52,300.15,6.7
64,New Norfolk,AU,90,58,-42.78,147.06,286.15,5.7
65,Bilibino,RU,100,100,68.05,166.44,237.16,1.21
66,Brejo Santo,BR,40,62,-7.49,-38.99,304.15,1.0
67,Chokurdakh,RU,0,89,70.63,147.92,240.41,4.24
68,Chenzhou,CN,100,87,25.8,113.03,274.33,4.01
69,Progreso,MX,75,55,21.28,-89.67,304.82,6.2
70,Stromness,GB,100,93,58.97,-3.3,281.15,11.3
71,Provideniya,RU,100,72,64.38,-173.3,251.76,7.01
72,Rocha,UY,0,25,-34.48,-54.33,306.51,1.51
73,Biltine,TD,0,9,14.53,20.92,296.87,3.25
74,Mto wa Mbu,TZ,63,70,-3.35,35.85,295.18,3.71
75,Albany,US,1,44,42.6,-73.97,270.93,2.6
76,Mataura,NZ,100,97,-46.19,168.86,287.04,2.24
77,Butaritari,KI,100,74,3.07,172.79,301.29,6.5
78,Pacific Grove,US,1,76,36.62,-121.92,288.71,3.66
79,Yerbogachen,RU,79,96,61.28,108.01,257.14,3.17
80,San Cristobal,VE,20,34,7.77,-72.22,307.15,3.6
81,Port Alfred,ZA,88,96,-33.59,26.89,295.93,1.34
82,Saldanha,ZA,0,42,-33.01,17.94,301.15,2.6
83,Padang,ID,87,95,-0.95,100.35,292.96,1.14
84,Mahuva,IN,0,54,21.09,71.76,296.27,5.6
85,East London,ZA,100,88,-33.02,27.91,298.15,4.1
86,Dingle,PH,8,87,11.0,122.67,295.83,4.18
87,Mossamedes,AO,50,82,-15.2,12.15,296.88,5.72
88,Norman Wells,CA,75,73,65.28,-126.83,235.15,1.0
89,Tautira,PF,75,78,-17.73,-149.15,301.15,7.2
90,Mega,ET,53,55,4.05,38.3,294.87,5.53
91,Belaya Gora,RU,33,87,68.53,146.42,241.37,3.35
92,Eravur,LK,4,83,7.77,81.61,298.26,3.26
93,Sept-Iles,CA,90,54,50.2,-66.38,260.37,2.1
94,Pemba,MZ,0,79,-12.97,40.52,300.77,2.62
95,Jamestown,US,1,53,42.1,-79.24,273.15,6.2
96,Camana,PE,24,62,-16.62,-72.71,297.07,5.29
97,La Ronge,CA,5,63,55.1,-105.28,249.15,5.1
98,Tutoia,BR,75,83,-2.76,-42.27,302.15,1.0
99,Kabare,CD,45,96,-2.47,28.82,289.54,1.02
100,Iqaluit,CA,20,61,63.75,-68.51,242.59,2.6
101,Marsh Harbour,BS,37,80,26.54,-77.06,296.86,6.02
102,Isangel,VU,20,88,-19.55,169.27,297.15,7.98
103,Saskylakh,RU,100,93,71.92,114.08,260.93,4.32
104,Oshkosh,US,90,68,44.02,-88.54,272.15,8.7
105,Esperance,AU,90,100,-33.87,121.9,292.15,7.2
106,Guerrero Negro,MX,83,54,27.98,-114.06,292.02,3.56
107,Deputatsky,RU,87,77,69.3,139.9,247.49,2.28
108,Neuquen,AR,0,19,-38.95,-68.06,305.15,4.6
109,Busselton,AU,6,49,-33.65,115.33,290.93,3.43
110,Kpandae,GH,4,9,8.47,-0.01,307.33,2.24
111,Ekhabi,RU,100,92,53.51,142.97,257.31,9.41
112,Bluff,NZ,100,97,-46.6,168.33,287.04,2.24
113,Portland,US,90,93,45.52,-122.68,279.82,5.1
114,Nyahururu,KE,92,94,0.04,36.37,286.58,4.6
115,Davila,PH,20,94,18.47,120.58,295.15,1.0
116,Katobu,ID,47,91,-4.94,122.53,297.63,0.66
117,Klaksvik,FO,100,86,62.23,-6.59,277.15,6.2
118,Tokur,RU,0,90,53.13,132.9,244.6,1.46
119,Nizhniy Kuranakh,RU,94,98,58.84,125.49,250.32,1.36
120,Mukilteo,US,90,87,47.94,-122.3,281.48,3.6
121,Grand Gaube,MU,40,78,-20.01,57.66,300.15,6.7
122,Vestmannaeyjar,IS,75,67,63.44,-20.27,277.15,11.8
123,Nisia Floresta,BR,20,55,-6.09,-35.21,304.15,6.7
124,Pevek,RU,100,100,69.7,170.31,244.41,2.79
125,Maua,BR,40,38,-23.67,-46.46,306.15,5.7
126,Los Llanos de Aridane,ES,20,72,28.66,-17.92,292.15,4.6
127,Olbia,IT,0,85,40.92,9.49,281.76,1.16
128,Katrineholm,SE,90,86,59.0,16.21,278.15,4.1
129,Juneau,US,90,92,58.3,-134.42,272.59,1.5
130,Chui,UY,5,54,-33.7,-53.46,302.14,2.78
131,Kula,TR,100,92,38.55,28.65,280.54,1.13
132,Severo-Kuril'sk,RU,97,89,50.68,156.12,263.67,11.02
133,Touros,BR,20,58,-5.2,-35.46,304.15,7.7
134,Kruisfontein,ZA,17,82,-34.0,24.73,296.48,4.07
135,San Juan,AR,0,22,-31.54,-68.54,308.63,2.78
136,Alice Springs,AU,1,35,-23.7,133.88,302.15,7.2
137,Buraidah,SA,0,17,26.33,43.98,291.15,2.6
138,Scarborough,GB,100,87,54.28,-0.4,285.93,11.8
139,Kashgar,CN,89,42,39.45,75.98,271.15,2.0
140,Primorskiy,RU,90,72,43.1,131.59,265.15,5.0
141,Ambahta,IN,0,77,29.85,77.33,286.93,2.34
142,Road Town,VG,40,66,18.42,-64.62,302.15,6.2
143,Sao Filipe,CV,78,44,14.9,-24.5,299.01,8.63
144,Riohacha,CO,31,44,11.54,-72.91,307.15,9.3
145,Mahebourg,MU,40,78,-20.41,57.7,300.15,6.7
146,Saint George,US,1,25,37.1,-113.58,285.15,2.1
147,Humaita,BR,100,75,-7.51,-63.02,301.46,2.43
148,Carnarvon,AU,90,83,-24.87,113.63,297.15,8.2
149,Puerto Plata,DO,40,74,19.79,-70.69,302.59,6.2
150,Leningradskiy,RU,100,95,69.38,178.42,248.15,5.89
151,Mnogovershinnyy,RU,99,96,53.94,139.92,252.62,2.73
152,Ormara,PK,0,51,25.21,64.64,297.24,4.39
153,Kita,ML,23,6,13.03,-9.49,308.33,2.41
154,Bonavista,CA,47,65,48.65,-53.11,264.82,6.71
155,Lleida,ES,0,93,41.62,0.62,287.04,1.5
156,Porto-Novo,BJ,20,79,6.5,2.6,302.15,3.1
157,Saint-Philippe,RE,20,78,-21.36,55.77,300.15,6.2
158,Yellowknife,CA,40,67,62.46,-114.35,247.04,2.1
159,Marihatag,PH,11,78,8.79,126.3,300.33,4.83
160,Honningsvag,NO,19,68,70.98,25.97,270.58,9.11
161,Aklavik,CA,5,64,68.22,-135.01,234.15,2.98
162,Sao Felix do Xingu,BR,19,74,-6.64,-51.99,302.49,1.52
163,Kodiak,US,90,92,57.79,-152.41,271.15,2.2
164,Cayenne,GF,90,74,4.93,-52.33,301.15,4.1
165,Tsimmerbude,RU,40,83,54.67,20.13,275.15,5.0
166,Bengkulu,ID,43,94,-3.8,102.27,296.48,1.78
167,Bauchi,NG,0,14,10.5,10.0,299.45,2.23
168,Bathsheba,BB,20,65,13.22,-59.52,301.15,10.8
169,Maltahohe,NA,52,47,-24.83,16.98,297.79,4.88
170,Nalut,LY,0,49,30.33,10.85,288.07,5.82
171,Geraldton,AU,90,73,-28.77,114.6,295.15,4.6
172,Bariloche,AR,40,51,-41.15,-71.31,290.15,12.3
173,Mbaiki,CF,26,20,3.87,17.99,301.25,1.03
174,Paamiut,GL,90,87,61.99,-49.67,265.58,7.63
175,Avera,US,1,52,33.19,-82.53,287.59,1.5
176,Aksha,RU,0,85,50.28,113.29,256.52,1.35
177,Trinidad,BO,40,63,-14.83,-64.9,306.15,6.2
178,Matagami,CA,100,85,49.75,-77.63,265.15,7.2
179,Talnakh,RU,40,84,69.49,88.4,256.15,4.0
180,Kieta,PG,99,74,-6.22,155.63,299.95,2.35
181,Itoman,JP,40,94,26.12,127.67,296.15,7.2
182,Naze,JP,75,94,28.37,129.48,295.15,4.6
183,Castro,BR,80,43,-24.79,-50.01,301.42,2.43
184,Longyearbyen,SJ,75,66,78.22,15.64,262.15,5.1
185,Sistranda,NO,67,52,63.73,8.83,278.15,9.3
186,Ust-Tsilma,RU,81,95,65.44,52.15,265.13,2.75
187,Lagoa,PT,100,86,39.05,-27.98,290.64,15.79
188,Muros,ES,90,93,42.78,-9.06,290.37,8.2
189,Kakanj,BA,70,93,44.13,18.12,276.15,0.5
190,Kurtamysh,RU,41,96,54.91,64.43,263.81,2.5
191,Bayir,TR,75,87,37.27,28.22,285.15,2.1
192,Dicabisagan,PH,99,84,17.08,122.42,295.27,2.28
193,Vanimo,PG,69,81,-2.67,141.3,300.62,5.28
194,Ajdabiya,LY,1,71,30.76,20.23,289.23,8.84
195,Jaisalmer,IN,0,13,26.91,70.92,292.31,0.92
196,Maceio,BR,40,55,-9.67,-35.74,304.15,6.2
197,Atuona,PF,47,75,-9.8,-139.03,300.67,8.29
198,Tiksi,RU,100,82,71.69,128.87,254.87,6.15
199,Erzin,TR,14,34,36.96,36.2,283.15,7.7
200,Manokwari,ID,33,80,-0.87,134.08,295.64,1.77
201,Eskil,TR,100,75,38.4,33.41,278.02,1.81
202,Barrow,US,1,94,71.29,-156.79,236.15,5.1
203,Harper,LR,15,73,4.38,-7.72,301.65,3.0
204,Kandalaksha,RU,100,96,67.16,32.41,268.01,3.82
205,Banda Aceh,ID,100,95,5.56,95.32,296.46,1.34
206,Talara,PE,57,100,-4.58,-81.27,290.15,5.1
207,Ponta do Sol,PT,40,72,32.67,-17.1,291.15,3.1
208,Dakoro,NE,74,7,14.51,6.76,298.06,4.97
209,Khandyga,RU,0,95,62.67,135.6,237.05,1.19
210,Hohhot,CN,76,56,40.81,111.65,262.15,8.0
211,Burgos,ES,20,81,42.34,-3.71,281.15,4.1
212,High Level,CA,90,69,58.52,-117.14,249.15,1.69
213,Moranbah,AU,0,76,-22.0,148.05,298.4,2.91
214,Kampene,CD,84,97,-3.6,26.67,294.77,2.02
215,Kindu,CD,72,80,-2.95,25.95,297.17,2.07
216,Sukhobuzimskoye,RU,71,84,56.5,93.27,259.15,0.36
217,Muli,MV,34,78,2.92,73.57,301.37,5.47
218,Abu Dhabi,AE,20,82,24.47,54.37,292.15,1.5
219,Christchurch,NZ,75,100,-43.53,172.63,293.71,2.1
220,Te Anau,NZ,100,97,-45.42,167.72,284.75,2.11
221,Belyy Yar,RU,30,91,53.6,91.39,257.15,0.38
222,Flinders,AU,90,100,-34.58,150.86,293.15,5.42
223,Ilulissat,GL,75,60,69.22,-51.1,260.15,1.0
224,Cabedelo,BR,20,58,-6.98,-34.83,304.15,6.2
225,Obo,CF,95,32,5.4,26.49,300.83,0.26
226,Gatton,AU,1,94,-27.55,152.28,296.48,0.78
227,Wajid,SO,51,45,3.81,43.25,301.06,6.25
228,Newport,GB,90,93,51.59,-3.0,287.04,11.8
229,Kwang Binh,VN,29,81,17.48,106.6,295.58,0.71
230,Xining,CN,100,45,36.62,101.77,261.76,0.14
231,Inirida,CO,60,54,3.87,-67.92,303.98,1.09
232,Madingou,CG,90,91,-4.15,13.55,297.57,1.31
233,Oistins,BB,20,65,13.07,-59.53,301.15,10.8
234,Sarab,IR,100,74,38.61,44.99,270.39,0.47
235,Cidreira,BR,69,77,-30.18,-50.21,298.83,4.02
236,Tura,IN,44,60,25.52,90.22,291.14,1.61
237,Mecca,SA,30,68,21.43,39.83,297.65,3.68
238,Pangoa,PE,48,60,-12.12,-73.0,303.07,2.52
239,Vao,NC,58,77,-22.67,167.48,299.61,7.61
240,Male,MV,43,80,4.17,73.51,301.15,5.4
241,Nagato,JP,75,93,34.38,131.2,286.15,2.6
242,Bakaly,RU,78,99,55.18,53.8,257.98,1.22
243,Shache,CN,85,29,38.42,77.24,272.71,1.63
244,Birjand,IR,75,29,32.87,59.22,276.15,2.1
245,Tsagan Aman,RU,100,86,47.56,46.72,272.8,1.59
246,Havelock,US,1,42,34.88,-76.9,282.59,3.1
247,Guane,CU,0,72,22.2,-84.09,299.77,7.36
248,Amposta,ES,75,100,40.71,0.58,287.04,2.1
249,Genhe,CN,70,98,50.78,121.52,252.83,2.01
250,Northam,GB,75,93,51.03,-4.22,286.48,11.3
251,Pizhma,RU,99,96,57.86,47.12,269.67,1.79
252,Strezhevoy,RU,75,85,60.73,77.59,262.15,3.0
253,Ostrovnoy,RU,0,88,68.05,39.51,262.18,8.55
254,Ulaanbaatar,MN,0,68,47.91,106.88,247.15,1.0
255,Provincia di Mantova,IT,99,75,45.17,10.78,284.26,0.5
256,Hualmay,PE,9,59,-11.1,-77.61,299.45,4.89
257,Pangody,RU,61,96,65.85,74.49,256.42,2.66
258,Waipawa,NZ,64,72,-41.41,175.52,293.15,7.2
259,Vardo,NO,0,85,70.37,31.11,266.61,7.76
260,Lima,PE,23,61,-12.04,-77.03,301.15,3.6
261,Kirakira,SB,99,86,-10.45,161.92,298.77,6.17
262,Vila Velha,BR,20,70,-20.33,-40.29,304.26,7.7
263,Sitka,US,90,100,57.05,-135.33,275.15,6.49
264,Ambilobe,MG,26,86,-13.2,49.05,299.67,1.1
265,Monterey,US,1,71,36.25,-121.25,289.82,4.1
266,Grand Forks,US,1,67,47.93,-97.03,266.48,12.3
267,Phan Thiet,VN,11,90,10.93,108.1,294.71,1.58
268,Aurillac,FR,36,61,44.92,2.45,284.82,1.5
269,Kihei,US,40,69,20.79,-156.47,296.15,6.2
270,Constitucion,CL,9,61,-35.33,-72.42,293.14,6.0
271,Pochutla,MX,20,49,15.74,-96.47,306.15,2.68
272,Alofi,NU,100,88,-19.06,-169.92,298.15,4.6
273,Itarema,BR,100,70,-2.92,-39.92,302.14,3.84
274,Mount Isa,AU,0,24,-20.73,139.5,305.15,5.1
275,Kasongo,CD,70,94,-4.45,26.67,295.56,1.79
276,Airai,TL,5,91,-8.93,125.41,292.95,1.15
277,Khatanga,RU,100,92,71.97,102.5,259.62,4.61
278,Ketchikan,US,90,93,55.34,-131.65,278.15,2.6
279,Wakkanai,JP,100,74,45.41,141.67,266.71,3.09
280,Kenai,US,40,84,60.55,-151.26,260.93,2.97
281,Matara,LK,54,81,5.95,80.54,297.56,3.62
282,Hofn,IS,100,64,64.25,-15.21,279.24,14.14
283,Port Lincoln,AU,51,76,-34.73,135.87,290.17,4.97
284,Cherskiy,RU,100,100,68.75,161.3,236.63,1.06
285,Bambous Virieux,MU,40,78,-20.34,57.76,300.15,6.7
286,Coquimbo,CL,21,64,-29.95,-71.34,294.15,6.2
287,Bima,ID,100,97,-8.47,118.72,295.67,0.52
288,Kununurra,AU,18,55,-15.77,128.73,304.15,4.6
289,Panguna,PG,91,88,-6.32,155.48,294.46,1.29
290,Medicine Hat,CA,75,85,50.05,-110.67,265.93,3.21
291,Melilla,ES,90,82,35.29,-2.94,289.15,1.0
292,Kibala,TD,5,27,9.11,18.35,303.15,1.19
293,Kalmunai,LK,0,78,7.42,81.82,299.92,4.62
294,Havre-Saint-Pierre,CA,1,50,50.23,-63.6,258.15,9.8
295,Grindavik,IS,75,74,63.84,-22.43,275.15,13.4
296,Lompoc,US,1,81,34.64,-120.46,291.48,3.71
297,Skibbereen,IE,75,93,51.55,-9.27,281.15,10.3
298,Moose Factory,CA,90,73,51.26,-80.61,269.15,7.7
299,Popondetta,PG,67,93,-8.75,148.25,294.88,1.51
300,Samarai,PG,9,89,-10.62,150.67,297.21,1.75
301,Nha Trang,VN,20,88,12.25,109.18,299.15,0.5
302,Tiznit,MA,83,23,29.58,-9.5,294.86,1.95
303,Tongliao,CN,100,66,43.61,122.27,262.08,7.46
304,Akcakoca,TR,97,96,41.09,31.12,278.49,0.8
305,Magadan,RU,0,76,59.57,150.8,254.24,5.58
306,Oussouye,SN,92,70,12.48,-16.55,310.15,1.0
307,Tchaourou,BJ,4,15,8.89,2.6,304.43,1.13
308,Athabasca,CA,100,96,54.72,-113.29,254.08,4.12
309,Nyimba,ZM,22,95,-14.56,30.81,293.2,0.98
310,Makakilo City,US,90,83,21.35,-158.09,297.15,2.6
311,Puerto Escondido,MX,40,74,15.85,-97.07,300.15,2.6
312,Sun Valley,US,90,21,39.6,-119.78,286.15,5.7
313,Troitsko-Pechorsk,RU,95,96,62.71,56.2,262.69,2.01
314,Mbanza-Ngungu,CD,96,90,-5.25,14.87,295.18,1.0
315,Syasstroy,RU,100,78,60.14,32.57,273.7,4.75
316,Andenes,NO,100,78,69.31,16.12,270.93,3.6
317,Porto Belo,BR,20,74,-27.16,-48.55,307.59,7.2
318,Glendive,US,90,80,47.11,-104.71,273.71,3.6
319,Sibolga,ID,100,96,1.74,98.78,294.96,0.95
320,Galatas,GR,40,71,37.5,23.45,285.37,4.1
321,Aztec,US,1,41,36.82,-107.99,280.37,1.5
322,Port Elizabeth,ZA,75,94,-33.92,25.57,296.15,6.2
323,Ushtobe,KZ,97,80,45.25,77.98,271.3,3.29
324,Booue,GA,78,69,-0.09,11.94,300.52,1.3
325,Usinsk,RU,99,94,65.99,57.53,262.79,6.57
326,Ntungamo,UG,84,87,-0.88,29.65,293.08,1.31
327,Romanovo,RU,53,85,52.62,81.23,263.44,2.36
328,Whitecourt,CA,90,77,54.15,-115.69,258.15,3.1
329,Coolum Beach,AU,13,97,-26.53,153.1,297.59,0.86
330,Karacabey,TR,75,81,40.22,28.4,282.59,9.3
331,Jiancheng,CN,40,64,30.39,104.55,278.71,1.0
332,Muncar,ID,98,81,-8.43,114.33,300.62,2.82
333,Meshcherino,RU,97,68,55.2,38.36,271.48,2.0
334,Sao Joao da Barra,BR,20,62,-21.64,-41.05,304.15,5.1
335,Amahai,ID,88,77,-3.33,128.92,301.21,3.9
336,Rawah,IQ,100,42,34.48,41.91,283.52,2.11
337,Pundaguitan,PH,0,79,6.37,126.17,299.12,3.14
338,Augusto Correa,BR,97,90,-1.02,-46.63,300.52,2.15
339,Otavi,NA,100,51,-19.65,17.33,296.89,3.53
340,Areia Branca,BR,20,44,-4.96,-37.14,310.15,5.7
341,Dargaville,NZ,100,89,-35.93,173.88,290.06,2.82
342,Bonthe,SL,0,67,7.53,-12.51,302.07,5.42
343,Huarmey,PE,8,53,-10.07,-78.15,300.88,5.27
344,Newburgh,US,1,35,41.5,-74.01,272.59,2.6
345,Villa Carlos Paz,AR,20,58,-31.42,-64.5,305.93,5.7
346,Cockburn Town,TC,20,58,21.46,-71.14,301.15,5.1
347,Hervey Bay,AU,0,100,-25.3,152.85,298.15,2.6
348,Mindelo,CV,20,54,16.89,-24.98,299.15,12.3
349,Salalah,OM,0,60,17.02,54.09,296.15,2.1
350,Tessalit,ML,100,7,20.2,1.01,299.33,4.12
351,Kysyl-Syr,RU,98,98,63.9,122.76,253.08,1.86
352,Olafsvik,IS,100,83,64.89,-23.71,274.12,20.97
353,Champerico,GT,20,49,14.3,-91.92,306.15,4.1
354,Sarangani,PH,3,74,5.4,125.46,300.82,9.04
355,Fortuna,US,20,81,40.6,-124.16,284.26,1.52
356,Manuk Mangkaw,PH,100,80,4.8,119.85,300.57,1.75
357,Valverde del Camino,ES,0,72,37.58,-6.75,292.59,2.68
358,Elverum,NO,84,96,60.88,11.56,276.48,4.47
359,Srandakan,ID,100,90,-7.94,110.25,297.82,0.78
360,Hasaki,JP,75,100,35.73,140.83,279.26,1.0
361,Shimoda,JP,75,93,34.67,138.95,282.04,1.0
362,Abu Zabad,SD,0,18,12.35,29.25,299.19,4.29
363,Maryville,US,1,42,35.76,-83.97,283.15,2.1
364,Malbork,PL,20,86,54.04,19.03,278.71,5.7
365,Tomatlan,MX,18,26,19.93,-105.25,306.5,1.39
366,Nouadhibou,MR,88,32,20.93,-17.03,300.15,4.1
367,Srednebelaya,RU,0,76,50.66,128.01,251.15,1.0
368,Kyabram,AU,67,81,-36.32,145.05,291.48,5.07
369,Shadrinsk,RU,90,96,56.09,63.63,262.49,2.42
370,Peniche,PT,20,82,39.36,-9.38,288.71,3.6
371,Todos Santos,MX,40,27,23.45,-110.22,299.26,5.1
372,Chicama,PE,20,78,-7.84,-79.15,297.15,5.1
373,Beloha,MG,1,87,-25.17,45.05,297.19,3.96
374,Antofagasta,CL,20,69,-23.65,-70.4,296.15,6.7
375,Riyadh,SA,0,14,24.69,46.72,290.15,1.5
376,Ossora,RU,100,77,59.24,163.07,256.7,4.5
377,Maniitsoq,GL,41,89,65.42,-52.9,264.2,8.98
378,Mount Pleasant,US,1,66,32.79,-79.86,288.15,3.6
379,Manicore,BR,77,62,-5.81,-61.3,304.77,1.15
380,Mothihari,IN,2,64,26.65,84.92,289.07,1.88
381,Locri,IT,20,58,38.24,16.26,287.15,1.5
382,Ust'-Barguzin,RU,0,88,53.45,108.98,256.73,1.43
383,Nicoya,CR,20,46,10.15,-85.45,305.15,14.9
384,Dwarka,IN,0,70,22.24,68.97,296.52,5.29
385,Tahe,CN,0,92,52.33,124.73,252.58,2.2
386,Carlsbad,US,1,44,33.16,-117.35,292.04,4.06
387,Luderitz,NA,11,88,-26.65,15.16,291.15,3.1
388,Takoradze,GH,68,68,4.88,-1.76,301.4,3.71
389,Flin Flon,CA,5,52,54.77,-101.86,250.15,5.1
390,Altamont,US,90,64,42.21,-121.74,277.59,6.2
391,Clyde River,CA,90,84,70.47,-68.59,255.15,7.2
392,Sur,OM,0,51,22.57,59.53,293.89,5.46
393,Aksu,CN,100,34,41.12,80.26,272.15,2.59
394,Pisco,PE,75,30,-13.7,-76.22,297.04,5.7
395,Ranot,TH,39,72,7.78,100.32,300.65,3.04
396,Bella Vista,US,90,54,36.43,-94.23,285.37,7.7
397,Jalu,LY,5,55,29.03,21.55,289.96,6.73
398,Hay River,CA,75,67,60.82,-115.8,242.15,2.6
399,Tucurui,BR,77,83,-3.77,-49.67,301.52,1.26
400,Yeniseysk,RU,78,96,58.45,92.17,259.61,1.18
401,Gimli,CA,86,73,50.63,-96.99,257.59,4.92
402,Jalingo,NG,28,13,8.88,11.37,302.48,2.43
403,Gigmoto,PH,0,76,13.78,124.39,299.7,5.76
404,Joshimath,IN,0,30,30.57,79.57,276.4,4.1
405,Talcahuano,CL,0,53,-36.72,-73.12,295.15,5.7
406,Dryden,CA,90,73,49.78,-92.75,266.15,7.2
407,Launceston,AU,0,71,-41.45,147.17,284.82,7.7
408,Miraflores,MX,5,52,19.22,-98.81,299.15,2.1
409,Upington,ZA,75,69,-28.45,21.26,298.15,3.6
410,Mersa Matruh,EG,0,73,31.35,27.25,289.14,9.99
411,Goleniow,PL,74,81,53.56,14.83,280.37,5.7
412,Amapa,BR,78,88,1.0,-52.0,300.49,1.23
413,Ribeira Grande,PT,75,82,38.52,-28.7,291.15,9.8
414,Burnie,AU,44,88,-41.07,145.92,282.59,1.34
415,Olinda,BR,20,62,-8.01,-34.86,303.15,5.1
416,Noyabrsk,RU,99,95,63.2,75.45,260.33,3.97
417,Kurtalan,TR,90,86,37.93,41.7,272.15,1.0
418,Bulgan,MN,0,66,48.81,103.53,258.37,1.54
419,Inhambane,MZ,0,78,-23.86,35.38,300.15,5.19
420,Mvuma,ZW,100,94,-19.28,30.53,292.71,5.67
421,Hong Kong,HK,40,93,22.29,114.16,290.37,11.3
422,Laas,IT,49,62,46.62,10.7,279.15,1.0
423,Marrakesh,MA,89,48,31.63,-8.01,292.15,1.0
424,Martapura,ID,100,98,-3.42,114.85,296.51,0.48
425,Lidkoeping,SE,100,100,58.51,13.16,279.15,6.7
426,Kamenka,RU,58,90,51.32,42.77,272.04,2.0
427,Nagorsk,RU,100,96,59.32,50.81,264.2,2.38
428,Zhigansk,RU,100,97,66.77,123.37,249.61,8.17
429,Cao Bang,VN,97,70,22.67,106.25,286.07,4.01
430,Margate,GB,75,93,51.38,1.39,285.15,14.9
431,Sechura,PE,56,90,-5.56,-80.82,295.75,6.59
432,Half Moon Bay,US,75,81,37.46,-122.43,288.71,2.1
433,Narsaq,GL,75,50,60.92,-46.05,271.15,1.0
434,Shiraz,IR,3,29,29.6,52.54,283.15,0.68
435,Santa Isabel do Rio Negro,BR,77,47,-0.41,-65.02,307.77,1.03
436,Okhotsk,RU,0,71,59.38,143.3,255.65,5.38
437,Bayshore Gardens,US,90,65,27.43,-82.59,299.26,5.1
438,Berlevag,NO,0,74,70.86,29.09,269.44,8.29
439,Onega,RU,100,90,63.91,38.14,269.33,4.4
440,Mildura,AU,0,72,-34.2,142.15,290.15,3.6
441,Mahanoro,MG,100,91,-19.9,48.8,298.71,7.9
442,Tikrit,IQ,100,40,34.61,43.68,285.35,1.69
443,Derzhavinsk,KZ,100,89,51.1,66.32,266.74,3.7
444,Ampanihy,MG,26,60,-24.7,44.75,299.45,2.33
445,Makaleng,BW,20,47,-20.9,27.28,300.15,4.1
446,Akhisar,TR,100,93,38.92,27.84,278.46,4.69
447,Dunedin,NZ,100,91,-45.87,170.5,288.71,0.89
448,Rome,US,1,52,43.21,-75.46,270.93,3.1
449,Nemuro,JP,100,63,43.32,145.57,268.07,8.36
450,Maumere,ID,84,85,-8.62,122.21,298.58,1.49
451,Yigou,CN,0,21,35.81,114.32,271.46,2.14
452,Marawi,PH,68,90,8.0,124.29,296.48,1.79
453,Leira,ES,75,77,43.12,-8.4,288.71,9.8
454,Borogontsy,RU,0,98,62.67,131.17,238.13,1.05
455,Gweru,ZW,100,94,-19.45,29.82,292.37,4.72
456,Tshikapa,CD,13,87,-6.42,20.8,294.77,1.65
457,Agarak,AM,100,54,39.21,46.54,270.94,1.91
458,Qiongshan,CN,36,94,20.01,110.35,295.15,1.47
459,Teguise,ES,20,72,29.06,-13.56,292.15,7.7
460,Kumul,CN,0,27,42.8,93.45,266.94,0.45
461,Letlhakane,BW,61,36,-21.42,25.58,300.82,5.33
462,Ola,RU,6,77,59.58,151.28,252.08,4.2
463,Jimenez,MX,90,22,28.33,-105.4,288.15,0.49
464,Kamaishi,JP,71,82,39.27,141.88,276.19,2.06
465,Codrington,AU,96,81,-38.27,141.97,288.46,6.53
466,Muramvya,BI,89,92,-3.27,29.61,288.9,1.89
467,Sitio Novo do Tocantins,BR,40,74,-5.52,-47.46,302.15,1.0
468,Kavieng,PG,98,79,-2.57,150.8,301.54,5.16
469,Sioux Lookout,CA,90,67,50.1,-91.92,267.15,7.2
470,Verkhnevilyuysk,RU,96,96,63.45,120.32,255.08,2.15
471,Bayan,CN,99,86,46.08,127.4,255.45,2.43
472,Strai,NO,90,100,58.2,7.9,280.93,9.3
473,Manggar,ID,36,79,-2.88,108.27,300.8,4.06
474,Kaka,TM,34,50,37.35,59.61,277.74,4.95
475,Salekhard,RU,92,91,66.53,66.6,259.02,2.45
476,Ust'-Ilimsk,RU,84,97,58.0,102.66,259.27,1.99
477,North Adams,US,1,44,42.7,-73.11,270.37,3.13
478,Ryotsu,JP,90,87,38.08,138.43,279.15,2.6
479,Penapolis,BR,73,57,-21.42,-50.08,304.15,0.96
480,Udachny,RU,94,84,66.42,112.4,258.15,2.0
481,Bairiki Village,KI,75,70,1.33,172.98,302.15,3.6
482,Plettenberg Bay,ZA,65,88,-34.05,23.37,294.96,3.34
483,Sayyan,YE,0,30,15.17,44.32,284.24,0.94
484,Kulhudhuffushi,MV,0,74,6.62,73.07,301.24,3.67
485,Bambanglipuro,ID,100,90,-7.95,110.28,297.82,0.78
486,Tuatapere,NZ,100,97,-46.13,167.68,287.04,2.68
487,Kavaratti,IN,19,69,10.57,72.64,300.82,1.42
488,Namatanai,PG,100,78,-3.67,152.43,301.15,5.65
489,Pangnirtung,CA,20,67,66.15,-65.71,240.15,1.5
490,Douglas,US,1,45,41.3,-96.17,282.04,6.2
491,Jumla,NP,0,39,29.27,82.18,274.7,2.33
492,Svetlogorsk,BY,100,85,52.63,29.73,274.89,1.59
493,Porgera,PG,85,97,-5.47,143.2,283.67,0.82
494,Dongsheng,CN,0,59,39.82,109.98,260.65,5.79
495,Rantepao,ID,100,95,-2.97,119.9,292.92,0.46
496,Biloela,AU,7,87,-24.42,150.5,296.21,0.57
497,Bendigo,AU,67,84,-36.77,144.28,289.26,1.34
498,Rudnogorsk,RU,24,97,57.26,103.75,256.88,0.88
499,Penzance,GB,75,87,50.12,-5.54,286.15,14.4
500,Berdigestyakh,RU,64,99,62.1,126.7,247.29,1.65
501,Ambon,ID,20,94,-3.7,128.18,299.15,2.6
502,Sidi Ali,DZ,0,77,36.1,0.42,287.21,1.56
503,Benalla,AU,75,77,-36.55,145.98,293.15,3.1
504,Teknaf,BD,0,94,20.86,92.31,287.52,0.72
505,Maningrida,AU,28,86,-12.07,134.27,302.44,8.24
506,Biu,NG,0,13,10.61,12.19,301.0,3.28
507,Solnechnyy,RU,0,79,50.72,136.63,252.55,1.67
508,Hegang,CN,0,90,47.4,130.37,253.3,2.52
509,Karasjok,NO,99,72,69.47,25.51,261.15,7.2
510,San Ramon,US,1,67,37.78,-121.98,288.71,0.18
511,Ullapool,GB,100,79,57.9,-5.16,279.26,5.81
512,Moba,CN,93,29,33.23,105.02,270.43,1.13
513,Caconda,AO,100,91,-13.73,15.07,292.15,1.41
514,Atbasar,KZ,100,90,51.8,68.33,265.26,3.39
515,Santa Luzia,BR,40,45,-19.77,-43.85,305.15,2.6
516,Meshchovsk,RU,97,89,54.32,35.28,272.06,2.28
517,Nome,US,90,49,64.5,-165.41,257.15,5.1
518,Temir,KZ,86,95,49.14,57.13,258.69,3.46
519,Goderich,CA,67,73,43.75,-81.72,269.82,9.27
520,Evensk,RU,27,78,61.95,159.23,250.45,7.75
521,Vaitape,PF,100,72,-16.52,-151.75,301.45,4.45
522,Napasar,IN,0,16,27.97,73.55,291.89,1.07
523,Ubari,LY,0,21,26.59,12.78,290.35,2.61
524,Oranjestad,AW,20,58,12.52,-70.03,303.15,11.8
525,Savannah Bight,HN,22,77,16.45,-85.85,299.92,7.6
526,Tucson,US,1,33,32.22,-110.93,292.04,0.76
527,Biskamzha,RU,100,94,53.45,89.53,262.39,1.37
528,Terra Nova,BR,85,69,-12.37,-40.67,300.15,1.0
529,Kasempa,ZM,92,97,-13.46,25.83,289.86,1.04
530,Pineville,US,75,58,31.32,-92.43,289.15,3.1
531,Barentu,ER,46,30,15.11,37.59,299.36,4.29
532,Tambacounda,SN,100,6,13.75,-13.76,311.15,3.1
533,Melo,UY,45,46,-32.37,-54.18,305.0,2.55
534,Arlit,NE,0,9,18.74,7.39,297.89,3.34
535,Ternate,ID,75,94,0.8,127.4,296.56,1.03
536,Laerdalsoyri,NO,100,83,61.1,7.48,271.48,3.22
537,Cerro Punta,PA,20,34,8.85,-82.57,307.15,12.9
538,Kiryat Gat,IL,20,87,31.61,34.76,288.15,1.5
539,Minab,IR,0,26,27.15,57.08,294.15,5.1
540,West Wendover,US,75,64,40.74,-114.07,275.15,1.37
541,Prince Rupert,CA,90,80,54.32,-130.32,278.15,6.7
542,Newport Beach,US,1,44,33.62,-117.93,292.04,1.71
543,Waiouru,NZ,99,93,-39.48,175.67,285.92,1.32
544,Lefka,CY,20,81,35.11,32.85,286.15,1.0
545,Boyolangu,ID,100,94,-8.12,111.89,297.02,0.08
546,Wuda,CN,0,34,39.5,106.71,264.07,4.63
547,Cordoba,AR,20,58,-31.41,-64.18,305.93,5.7
548,Laguna,US,20,66,38.42,-121.42,289.26,0.64
549,Kalamare,BW,8,41,-22.93,26.57,298.33,3.74
550,Bulawayo,ZW,40,69,-20.15,28.58,298.15,4.1
551,Chardara,KZ,91,79,41.25,67.97,275.52,7.87
552,Abalak,RU,88,96,58.13,68.59,261.21,2.0
553,Inverell,AU,0,87,-29.78,151.12,293.71,1.74
554,Saint-Donat-de-Montcalm,CA,76,7,46.32,-74.22,267.59,0.89
555,Purpe,RU,99,86,64.48,76.69,257.59,3.63
556,Dulag,PH,0,86,10.95,125.03,296.48,2.26
557,Whitehorse,CA,90,69,60.72,-135.05,250.93,3.6
558,Dunda,TZ,77,94,-8.12,34.25,292.61,0.96
559,Atambua,ID,24,89,-9.11,124.89,297.25,1.26
560,Teguldet,RU,60,97,57.31,88.17,262.86,1.52
561,Pampas,PE,67,58,-12.4,-74.9,286.9,3.07
562,Yenagoa,NG,72,62,4.92,6.26,302.23,3.8
563,Severnyy,RU,92,69,50.68,36.55,275.15,3.0
564,Ekenaes,FI,100,100,59.97,23.43,276.48,3.13
565,Burley,US,90,41,42.54,-113.79,277.15,4.6
566,Bandarbeyla,SO,66,77,9.49,50.81,297.77,7.19
567,Najran,SA,0,29,17.49,44.13,292.15,3.1
568,Lazarev,RU,98,83,52.23,141.51,254.0,2.57
569,'Ahuimanu,US,90,83,21.44,-157.84,297.15,2.6
570,Pljevlja,ME,94,74,43.33,19.33,275.15,1.0
571,Pilar,BR,40,55,-9.6,-35.96,304.15,6.2
